     3.03           OBSERVATION DATA    G: GPS              RINEX VERSION / TYPE
RtkConv Qt demo5 b34                    20240722 161605 UTC PGM / RUN BY / DATE 
format: RINEX                                               COMMENT             
log: /home/hades/Desktop/Projects/NeuralTriangulation/tests/COMMENT             
Google GnssLogger                                           MARKER NAME         
Unknown                                                     MARKER NUMBER       
                                                            MARKER TYPE         
                                                            OBSERVER / AGENCY   
Unknown             GNSSToRINEXV3       v1.0.0.0            REC # / TYPE / VERS 
Unknown             Unknown                                 ANT # / TYPE        
        0.0000        0.0000        0.0000                  APPROX POSITION XYZ 
        0.0000        0.0000        0.0000                  ANTENNA: DELTA H/E/N
G    4 C1C L1C D1C S1C                                      SYS / # / OBS TYPES 
  2020    06    10    20    08   51.4432855     GPS         TIME OF FIRST OBS   
  2020    06    10    20    33   50.4432788     GPS         TIME OF LAST OBS    
G L1C                                                       SYS / PHASE SHIFT   
  0                                                         GLONASS SLOT / FRQ #
                                                            GLONASS COD/PHS/BIS 
                                                            END OF HEADER       
> 2020 06 10 20 08 51.4432855  0  8                     
G02  20894805.300 5    240740.56015      -813.230          35.200  
G05  23502086.517 5    -97231.28035      3280.164          33.200  
G06  22084863.840 5    823310.67335     -2620.025          32.800  
G12  20204924.695 4   -214325.10314       852.254          25.200  
G19  23729134.935 5     71361.01135     -2808.108          34.200  
G24  22811839.265 6    907871.22916     -2845.019          37.900  
G25  21605254.966 5   -809630.86115      2451.486          34.600  
G29  23589142.949 6   -312420.15316      2416.384          38.400  
> 2020 06 10 20 08 52.4432855  0  8                     
G02  20894965.408 5    241558.545 5      -816.687          32.900  
G05  23501459.670 5   -100508.85915      3281.348          31.400  
G06  22085356.717 5    825935.27915     -2623.207          30.200  
G12                                                                
G19  23729673.980 5     74173.10115     -2809.765          31.300  
G24  22812384.307 5    910719.144 5     -2844.772          34.600  
G25  21604786.409 5   -812077.68515      2448.478          30.800  
G29  23588678.290 5   -314833.268 5      2415.973          34.400  
> 2020 06 10 20 08 53.4432856  0  8                     
G02  20895148.390 5    242367.537 5      -805.797          33.600  
G05  23500869.187 5   -103797.917 5      3291.879          33.000  
G06  22085891.655 5    828552.25215     -2614.632          33.400  
G12  20204618.134 3              23       859.500          23.000  
G19  23730233.201 6     76976.61516     -2801.700          35.500  
G24  22812951.022 6    913555.325 6     -2831.898          39.000  
G25  21604350.619 6   -814533.77316      2459.292          37.400  
G29  23588249.694 6   -317257.116 6      2427.617          38.200  
> 2020 06 10 20 08 54.4432856  0  8                     
G02  20895305.869 6    243178.744 6      -814.992          35.700  
G05  23500242.709 6   -107086.155 6      3286.013          37.900  
G06  22086382.504 5    831172.647 5     -2626.440          33.800  
G12  20204471.324 4   -216870.005 4       850.916          24.700  
G19  23730769.318 5     79784.188 5     -2813.752          35.200  
G24  22813492.836 5    916389.435 5     -2835.163          35.300  
G25  21603884.830 6   -816988.513 6      2450.827          38.700  
G29  23587789.901 6   -319681.894 6      2422.729          36.300  
> 2020 06 10 20 08 55.4432856  0  8                     
G02  20895460.225 6    243999.760 6      -825.009          37.400  
G05  23499617.605 6   -110368.081 6      3279.503          35.900  
G06  22086889.716 6    833807.177 6     -2640.630          38.200  
G12  20204303.403 4   -217715.38814       840.941          27.300  
G19  23731313.405 4     82606.59314     -2828.452          27.200  
G24  22814032.725 6    919225.95016     -2836.140          37.600  
G25  21603418.016 6   -819434.514 6      2443.441          40.700  
G29  23587328.184 5   -322102.695 5      2420.900          34.600  
> 2020 06 10 20 08 56.4432856  0  8                     
G02  20895616.482 6    244827.968 6      -829.597          35.800  
G05  23498990.203 5   -113646.285 5      3277.621          33.000  
G06  22087390.434 6    836453.322 6     -2649.834          37.500  
G12  20204130.188 5   -218554.08815       838.087          29.500  
G19  23731853.995 5     85440.88415     -2839.302          29.900  
G24  22814569.418 5    922059.76225     -2830.826          34.300  
G25  21602952.503 6   -821876.626 6      2442.488          40.700  
G29  23586865.669 6   -324525.268 6      2425.766          38.400  
> 2020 06 10 20 08 57.4432856  0  8                     
G02  20895774.515 6    245663.302 6      -842.596          36.700  
G05  23498373.573 5   -116918.938 5      3265.972          34.100  
G06  22087901.023 6    839111.191 6     -2666.872          38.200  
G12  20203984.831 5   -219387.635 5       826.983          29.600  
G19  23732393.664 5     88288.973 5     -2857.996          33.000  
G24  22815110.286 5    924891.81115     -2836.159          35.400  
G25  21602489.366 6   -824315.640 6      2432.932          39.000  
G29  23586405.830 6   -326950.84116      2421.047          37.600  
> 2020 06 10 20 08 58.4432856  0  8                     
G02  20895937.795 6    246509.571 6      -848.057          36.300  
G05  23497748.399 6   -120182.912 6      3264.266          35.800  
G06  22088407.265 6    841782.960 6     -2674.313          37.100  
G12  20203812.943 5   -220210.854 5       821.133          31.600  
G19  23732928.387 5     91151.584 5     -2864.550          33.200  
G24  22815653.703 6    927729.471 6     -2837.405          37.000  
G25  21602026.979 6   -826744.917 6      2426.983          38.200  
G29  23585947.040 6   -329369.30526      2417.881          39.700  
> 2020 06 10 20 08 59.4432856  0  8                     
G02  20896095.713 5    247358.473 5      -849.276          34.800  
G05  23497128.056 5   -123447.324 5      3265.639          35.200  
G06  22088913.842 6    844459.113 6     -2677.377          37.500  
G12  20203664.173 5   -221030.988 5       819.460          32.000  
G19  23733475.136 5     94017.972 5     -2867.122          33.300  
G24  22816191.458 6    930566.605 6     -2836.070          37.400  
G25  21601565.226 6   -829170.302 6      2424.391          37.500  
G29  23585481.090 6   -331785.76816      2416.673          39.400  
> 2020 06 10 20 09 00.4432856  0  8                     
G02  20896262.975 5    248210.001 5      -850.853          34.400  
G05  23496507.163 5   -126712.149 5      3267.300          34.600  
G06  22089426.765 6    847139.488 6     -2680.384          37.400  
G12  20203504.961 5   -221848.137 5       817.647          31.300  
G19  23734024.634 5     96888.546 5     -2869.458          33.300  
G24  22816730.763 6    933403.782 6     -2834.285          38.100  
G25  21601103.824 6   -831592.005 6      2421.895          37.700  
G29  23585030.180 6   -334199.843 6      2415.830          39.600  
> 2020 06 10 20 09 01.4432856  0  8                     
G02  20896420.223 5    249053.962 5      -843.484          34.500  
G05  23495883.452 5   -129987.512 5      3277.102          33.900  
G06  22089933.272 6    849813.726 6     -2674.377          37.000  
G12  20203352.224 5   -222672.519 5       824.718          30.500  
G19  23734568.914 5     99751.787 5     -2863.220          33.600  
G24  22817268.448 6    936229.879 6     -2824.344          38.200  
G25  21600641.401 6   -834020.231 6      2428.237          37.700  
G29  23584565.359 6   -336622.668 6      2423.569          39.700  
> 2020 06 10 20 09 02.4432856  0  8                     
G02  20896580.278 6    249905.090 6      -854.886          35.600  
G05  23495259.849 5   -133258.669 5      3268.766          35.400  
G06  22090447.381 6    852496.394 6     -2686.958          36.400  
G12  20203197.197 5   -223489.373 5       813.039          31.700  
G19  23735116.600 5    102622.704 5     -2874.787          32.300  
G24  22817804.142 6    939060.312 6     -2832.771          37.900  
G25  21600179.986 6   -836440.502 6      2416.245          37.300  
G29  23584107.841 6   -339039.220 6      2413.336          40.100  
> 2020 06 10 20 09 03.4432855  0  8                     
G02  20896714.829 5    250764.554 5      -861.181          35.400  
G05  23494610.443 6   -136524.200 6      3264.385          35.500  
G06  22090925.794 6    855188.207 6     -2693.681          36.500  
G12  20203018.765 5   -224297.610 5       806.336          30.100  
G19  23735629.789 5    105501.959 5     -2880.788          33.200  
G24  22818314.933 6    941896.721 6     -2837.997          37.900  
G25  21599693.067 6   -838851.671 6      2409.002          37.900  
G29  23583618.225 6   -341448.073 6      2406.719          40.600  
> 2020 06 10 20 09 04.4432855  0  8                     
G02  20896879.870 5    251624.864 5      -857.195          34.900  
G05  23493986.730 6   -139789.831 6      3269.482          35.700  
G06  22091439.793 6    857880.521 6     -2688.189          36.000  
G12  20202858.831 5   -225104.607 5       810.051          30.300  
G19  23736184.260 5    108380.909 5     -2874.355          34.200  
G24  22818857.712 6    944734.116 6     -2834.443          36.900  
G25  21599234.240 6   -841261.301 6      2412.628          37.200  
G29  23583156.999 6   -343855.269 6      2410.206          39.000  
> 2020 06 10 20 09 05.4432855  0  8                     
G02  20897042.701 6    252480.437 6      -856.743          35.600  
G05  23493368.302 6   -143060.111 6      3269.056          36.100  
G06  22091949.484 6    860567.143 6     -2687.382          36.300  
G12  20202698.186 5   -225916.258 5       810.811          30.300  
G19  23736730.526 5    111253.627 5     -2873.132          33.100  
G24  22819394.385 6    947567.894 6     -2835.079          37.700  
G25  21598778.300 6   -843675.645 6      2413.817          38.100  
G29  23582700.459 6   -346266.525 6      2411.079          39.200  
> 2020 06 10 20 09 06.4432855  0  8                     
G02  20897205.176 6    253335.445 6      -852.240          36.400  
G05  23492746.520 6   -146329.278 6      3270.818          36.600  
G06  22092460.318 6    863252.439 6     -2681.504          36.400  
G12  20202546.778 5   -226729.041 5       815.810          31.200  
G19  23737270.439 5    114125.183 5     -2867.701          32.800  
G24  22819936.397 6    950402.054 6     -2832.602          37.900  
G25  21598313.009 6   -846092.085 6      2420.045          38.100  
G29  23582241.464 6              26      2416.550          39.400  
> 2020 06 10 20 09 07.4432855  0  8                     
G02  20897371.461 5    254184.484 5      -853.616          35.100  
G05  23492122.552 5   -149601.737 5      3266.819          33.700  
G06  22092973.463 6    865930.092 6     -2681.818          37.800  
G12  20202392.885 5   -227548.123 5       814.532          30.200  
G19  23737820.160 5    116989.230 5     -2868.299          32.500  
G24  22820475.324 6    953233.228 6     -2837.365          37.800  
G25  21597850.630 6   -848515.580 6      2418.728          37.900  
G29  23581779.984 6   -351092.482 6      2412.359          39.700  
> 2020 06 10 20 09 08.4432855  0  8                     
G02  20897531.515 5    255046.868 5      -860.682          35.300  
G05  23491504.345 5   -152859.889 5      3259.809          33.900  
G06  22093484.873 6    868619.748 6     -2687.402          38.000  
G12  20202242.054 5   -228353.57215       807.187          30.500  
G19  23738363.348 5    119864.47315     -2872.895          31.300  
G24  22821013.716 6    956080.273 6     -2845.993          36.300  
G25  21597394.610 6   -850925.250 6      2411.309          38.100  
G29  23581321.865 6   -353495.238 6      2404.269          39.200  
> 2020 06 10 20 09 09.4432855  0  8                     
G02  20897694.770 6    255901.792 6      -856.624          35.900  
G05  23490883.942 5   -156125.162 5      3264.987          30.900  
G06  22093994.389 6    871301.286 6     -2683.068          38.500  
G12  20202086.329 4   -229166.16614       810.663          28.600  
G19  23738913.335 5    122731.224 5     -2867.686          31.600  
G24  22821557.108 6    958921.387 6     -2842.359          35.800  
G25  21596935.795 6   -853341.827 6      2414.212          39.000  
G29  23580866.049 6   -355904.026 6      2406.629          39.500  
> 2020 06 10 20 09 10.4432855  0  8                     
G02  20897857.984 6    256763.129 6      -858.867          36.100  
G05  23490258.702 5   -159386.634 5      3265.504          30.600  
G06  22094505.962 6    873989.503 6     -2686.186          38.300  
G12  20201931.464 5   -229971.86425       808.022          30.400  
G19  23739460.284 5    125603.711 5     -2869.807          32.100  
G24  22822098.960 5    961767.564 5     -2842.623          35.000  
G25  21596477.240 6   -855750.751 6      2410.932          39.100  
G29  23580407.494 6   -358306.517 6      2404.886          39.400  
> 2020 06 10 20 09 11.4432855  0  8                     
G02  20898022.877 6    257618.866 6      -850.597          35.600  
G05  23489640.837 5   -162657.052 5      3277.470          30.300  
G06  22095018.314 6    876672.984 6     -2678.705          37.900  
G12  20201775.879 5   -230782.44925       814.960          29.600  
G19  23740011.309 4              24     -2860.950          28.800  
G24  22822634.996 5    964605.40415     -2832.462          33.700  
G25  21596017.965 6   -858163.727 6      2416.791          38.800  
G29  23579949.118 6   -360713.818 6      2411.655          39.100  
> 2020 06 10 20 09 12.4432855  0  8                     
G02  20898177.837 5    258465.595 5      -851.800          33.200  
G05  23489015.437 4   -165940.061 4      3279.888          29.100  
G06  22095527.029 6    879348.219 6     -2680.657          35.600  
G12  20201619.354 4   -231601.19214       812.634          27.900  
G19  23740546.106 4    131335.104 4     -2862.046          27.400  
G24  22823177.887 5    967433.398 5     -2831.545          30.400  
G25  21595556.552 6   -860583.457 6      2413.729          37.000  
G29  23579490.103 6   -363128.363 6      2409.688          36.700  
> 2020 06 10 20 09 13.4432855  0  8                     
G02  20898346.253 5    259318.514 5      -850.979          34.700  
G05  23488393.300 5   -169220.84015      3283.799          29.800  
G06  22096036.609 6    882030.603 6     -2681.487          37.800  
G12  20201464.894 4   -232411.56214       813.084          28.300  
G19  23741094.059 4    134198.20314     -2861.967          27.300  
G24  22823715.647 5    970263.959 5     -2826.908          35.100  
G25  21595099.001 6   -862995.617 6      2413.967          38.200  
G29  23579032.252 6   -365537.619 6      2412.013          38.200  
> 2020 06 10 20 09 14.4432855  0  8                     
G02  20898507.835 6    260176.405 6      -863.896          36.500  
G05  23487762.831 5   -172499.42225      3273.556          33.500  
G06  22096545.051 6    884720.147 6     -2696.543          38.900  
G12  20201310.195 5   -233218.794 5       801.386          30.900  
G19  23741635.479 5    137068.237 5     -2877.151          30.900  
G24  22824251.371 6    973095.127 6     -2834.921          37.700  
G25  21594639.713 6   -865402.821 6      2401.769          39.100  
G29  23578573.564 6   -367944.490 6      2402.885          39.300  
> 2020 06 10 20 09 15.4432855  0  8                     
G02  20898673.042 6    261044.823 6      -872.154          36.200  
G05  23487141.083 5   -175769.01725      3266.248          33.700  
G06  22097062.514 6    887421.917 6     -2705.737          37.800  
G12  20201159.420 5   -234015.785 5       793.218          31.500  
G19  23742187.118 5    139950.571 5     -2886.184          29.700  
G24  22824794.615 6    975933.299 6     -2841.584          38.500  
G25  21594187.347 6   -867800.464 6      2393.719          38.700  
G29  23578117.901 6   -370343.919 6      2395.678          39.700  
> 2020 06 10 20 09 16.4432854  0  8                     
G02  20898808.186 6    261918.233 6      -870.901          36.200  
G05  23486497.366 5   -179034.66325      3269.287          32.900  
G06  22097547.516 6    890129.033 6     -2704.684          38.800  
G12  20200980.682 5   -234807.588 5       794.168          30.000  
G19  23742708.395 5    142837.776 5     -2884.355          30.400  
G24  22825303.301 6    978775.862 6     -2839.528          38.500  
G25  21593700.122 6   -870192.521 6      2394.014          38.500  
G29  23577631.575 6   -372738.037 6      2396.287          38.800  
> 2020 06 10 20 09 17.4432854  0  8                     
G02  20898974.755 6    262786.970 6      -870.776          36.400  
G05  23485866.787 5   -182307.34315      3271.236          31.400  
G06  22098061.545 6    892831.859 6     -2705.434          38.600  
G12  20200825.274 5   -235603.590 5       793.907          30.100  
G19  23743254.202 5    145719.850 5     -2884.552          32.000  
G24  22825844.011 6    981612.582 6     -2837.848          38.500  
G25  21593241.924 6   -872587.977 6      2393.121          38.000  
G29  23577176.974 6   -375136.264 6      2396.402          39.400  
> 2020 06 10 20 09 18.4432854  0  8                     
G02  20899140.539 6    263663.877 6      -881.443          36.800  
G05  23485244.416 5   -185573.65815      3263.125          31.800  
G06  22098575.987 6    895544.108 6     -2717.223          38.500  
G12  20200687.368 5   -236390.791 5       783.208          30.100  
G19  23743798.323 5    148610.968 5     -2895.953          31.500  
G24  22826386.334 6    984455.01816     -2845.182          38.100  
G25  21592792.234 6   -874974.937 6      2382.521          38.300  
G29  23576718.890 6   -377527.367 6      2387.412          40.100  
> 2020 06 10 20 09 19.4432854  0  8                     
G02  20899313.964 6    264546.96116      -884.109          36.100  
G05  23484631.786 5              25      3258.550          30.900  
G06  22099098.670 6    898263.75816     -2720.157          37.000  
G12  20200535.218 5   -237172.65615       780.879          30.300  
G19  23744357.281 5    151508.98115     -2897.965          31.900  
G24  22826926.405 6    987301.890 6     -2848.049          38.400  
G25  21592334.895 6   -877355.42116      2380.119          37.600  
G29  23576264.849 6   -379913.210 6      2385.933          39.500  
> 2020 06 10 20 09 20.4432854  0  8                     
G02  20899477.241 6    265432.585 6      -884.372          36.200  
G05  23484002.111 5   -192084.031 5      3262.569          33.400  
G06  22099612.404 6    900984.700 6     -2720.040          38.300  
G12  20200376.518 5   -237951.893 5       780.092          30.200  
G19  23744908.190 5    154408.15225     -2897.180          30.200  
G24  22827468.020 6    990150.298 6     -2846.705          38.000  
G25  21591882.099 6   -879734.684 6      2379.482          38.300  
G29  23575814.451 6   -382298.62516      2385.690          39.100  
> 2020 06 10 20 09 21.4432853  0  8                     
G02  20899616.269 6    266312.938 6      -876.672          36.400  
G05  23483353.885 5   -195352.517 5      3273.752          34.200  
G06  22100100.391 6    903700.499 6     -2712.071          38.800  
G12  20200212.157 5   -238735.334 5       786.568          29.700  
G19  23745423.458 4    157300.18114     -2887.637          28.500  
G24  22827974.295 6    992992.820 6     -2838.779          36.600  
G25  21591400.257 6   -882116.764 6      2384.375          39.200  
G29  23575328.112 6   -384686.844 6      2390.412          38.900  
> 2020 06 10 20 09 22.4432853  0  8                     
G02  20899781.686 6    267190.390 6      -879.789          36.700  
G05  23482733.246 5   -198626.670 5      3273.314          32.600  
G06  22100616.865 6    906413.857 6     -2716.288          38.200  
G12  20200047.202 4   -239520.772 4       782.773          29.300  
G19  23745963.016 4    160188.75014     -2891.903          25.800  
G24  22828521.048 6    995831.937 6     -2840.028          36.400  
G25  21590946.902 6   -884499.123 6      2379.485          38.500  
G29  23574872.060 6   -387075.555 6      2386.698          39.400  
> 2020 06 10 20 09 23.4432853  0  8                     
G02  20899951.054 6    268068.329 6      -874.377          35.700  
G05  23482109.663 5   -201903.190 5      3281.200          31.000  
G06  22101131.594 6    909129.003 6     -2712.638          37.200  
G12  20199899.690 4   -240305.455 4       788.476          28.700  
G19  23746534.406 4    163080.22914     -2887.465          27.600  
G24  22829057.662 6    998668.187 6     -2830.623          37.000  
G25  21590492.702 6   -886880.579 6      2385.357          37.700  
G29  23574419.658 6   -389465.290 6      2394.975          38.800  
> 2020 06 10 20 09 24.4432853  0  8                     
G02  20900115.254 6    268942.787 6      -876.728          36.300  
G05  23481483.010 5   -205184.880 5      3281.246          31.900  
G06  22101642.654 5    911843.235 5     -2716.827          35.400  
G12  20199751.806 5   -241094.258 5       786.683          30.200  
G19  23747078.443 5    165968.822 5     -2890.957          30.800  
G24  22829598.701 6   1001496.428 6     -2828.425          38.100  
G25  21590041.428 6   -889266.540 6      2383.900          37.600  
G29  23573961.489 6   -391861.694 6      2396.173          39.300  
> 2020 06 10 20 09 25.4432853  0  8                     
G02  20900281.298 5    269821.219 5      -877.551          35.300  
G05  23480863.598 5   -208465.245 5      3282.904          32.400  
G06  22102164.551 6    914562.426 6     -2718.397          37.100  
G12  20199611.461 5   -241879.023 5       785.452          30.600  
G19  23747630.019 5    168862.173 5     -2891.791          31.500  
G24  22830136.787 6   1004325.608 6     -2827.814          38.000  
G25  21589585.403 6   -891648.451 6      2381.927          37.200  
G29  23573504.264 6   -394256.233 6      2394.921          38.400  
> 2020 06 10 20 09 26.4432853  0  8                     
G02  20900448.283 6    270696.007 6      -873.481          36.200  
G05  23480235.234 5   -211752.199 5      3289.721          34.900  
G06  22102684.393 6    917277.944 6     -2714.121          38.700  
G12  20199453.772 5   -242666.308 5       787.858          31.300  
G19  23748182.238 5    171750.413 5     -2885.890          34.200  
G24  22830674.016 6   1007151.114 6     -2824.301          38.500  
G25  21589133.317 6   -894031.229 6      2382.601          38.100  
G29  23573048.881 6   -396651.609 6      2395.084          38.100  
> 2020 06 10 20 09 27.4432853  0  8                     
G02  20900614.591 6    271572.018 6      -877.683          35.900  
G05  23479604.693 5   -215041.160 5      3288.734          35.200  
G06  22103199.659 6    919994.612 6     -2718.660          38.200  
G12  20199300.201 5   -243451.391 5       783.078          31.900  
G19  23748726.284 5    174638.216 5     -2889.268          33.700  
G24  22831210.567 6   1009977.246 6     -2826.867          37.800  
G25  21588679.054 6   -896410.304 6      2376.774          38.100  
G29  23572596.716 6   -399043.567 6      2390.203          38.600  
> 2020 06 10 20 09 28.4432852  0  8                     
G02  20900750.238 5    272448.135 5      -873.977          35.300  
G05  23478950.987 6   -218332.651 6      3294.896          36.100  
G06  22103688.761 6    922712.433 6     -2716.326          38.400  
G12  20199129.760 5   -244236.068 5       786.942          33.900  
G19  23749246.865 5    177526.428 5     -2886.258          35.000  
G24  22831717.957 6   1012801.025 6     -2819.839          39.400  
G25  21588197.128 6   -898788.487 6      2380.451          37.800  
G29  23572111.793 6   -401436.068 6      2395.993          37.700  
> 2020 06 10 20 09 29.4432852  0  8                     
G02  20900921.022 5    273324.553 5      -879.288          34.700  
G05  23478321.624 6   -221625.808 6      3291.248          36.300  
G06  22104204.306 6    925431.683 6     -2722.396          38.800  
G12  20198980.065 5   -245020.431 5       781.484          35.000  
G19  23749798.385 5    180415.648 5     -2892.122          35.200  
G24  22832256.286 6   1015622.396 6     -2823.394          39.700  
G25  21587743.444 6   -901166.447 6      2374.793          37.900  
G29  23571649.715 6   -403829.885 6      2391.096          37.900  
> 2020 06 10 20 09 30.4432852  0  8                     
G02  20901090.116 6    274204.266 6      -879.470          35.500  
G05  23477698.367 6   -224917.972 6      3293.680          36.100  
G06  22104722.658 6    928154.620 6     -2722.635          39.200  
G12  20198828.381 5   -245801.166 5       780.408          33.900  
G19  23750348.215 5    183307.565 5     -2890.823          34.800  
G24  22832789.328 6   1018445.540 6     -2822.969          38.900  
G25  21587291.968 6   -903540.240 6      2372.879          38.400  
G29  23571200.337 6   -406220.397 6      2389.661          38.600  
> 2020 06 10 20 09 31.4432852  0  8                     
G02  20901253.725 6    275081.351 6      -875.200          36.600  
G05  23477070.824 5   -228215.156 5      3300.325          34.900  
G06  22105241.821 6    930874.451 6     -2717.679          39.500  
G12  20198682.905 5   -246583.383 5       783.606          33.300  
G19  23750900.955 5    186195.026 5     -2884.485          32.600  
G24  22833329.477 6   1021266.938 6     -2819.619          37.700  
G25  21586844.001 6   -905913.831 6      2374.362          39.100  
G29  23570744.575 6   -408610.106 6      2390.347          39.400  
> 2020 06 10 20 09 32.4432852  0  8                     
G02  20901419.325 5    275956.628 5      -873.667          33.500  
G05  23476432.680 5   -231516.786 5      3304.661          30.500  
G06  22105759.078 6    933592.204 6     -2716.027          37.400  
G12  20198524.729 5   -247366.534 5       784.419          32.300  
G19  23751450.289 5    189078.28315     -2881.441          30.200  
G24  22833862.022 5   1024086.241 5     -2817.242          34.600  
G25  21586388.131 6   -908287.324 6      2374.345          37.000  
G29  23570290.204 6   -410999.840 6      2390.786          36.200  
> 2020 06 10 20 09 33.4432852  0  8                     
G02  20901584.404 5    276824.320 5      -858.917          33.300  
G05  23475809.006 4              24      3325.950          28.500  
G06  22106274.315 6    936302.216 6     -2700.674          37.200  
G12  20198376.525 5   -248156.40415       798.067          31.900  
G19  23751989.210 5    191953.07815     -2864.410          29.700  
G24  22834397.046 5   1026897.754 5     -2802.654          33.400  
G25  21585935.038 6   -910666.42916      2386.877          37.700  
G29  23569830.216 6   -413395.67316      2403.236          36.000  
> 2020 06 10 20 09 34.4432852  0  8                     
G02  20901748.852 6    277678.78316      -857.752          35.500  
G05  23475181.102 5              25      3324.500          29.600  
G06  22106786.222 6    938997.62216     -2698.492          38.400  
G12  20198230.388 5   -248958.26415       798.159          31.800  
G19  23752532.596 5    194811.71615     -2859.838          31.800  
G24  22834929.639 6   1029696.14516     -2802.517          37.000  
G25  21585481.914 6   -913055.97616      2385.013          40.200  
G29  23569378.891 6   -415801.09316      2400.521          37.100  
> 2020 06 10 20 09 35.4432852  0  8                     
G02  20901912.961 6    278541.995 6      -864.354          36.700  
G05  23474549.861 4   -241469.67824      3321.281          27.500  
G06  22107301.088 6    941700.846 6     -2704.676          39.500  
G12  20198072.519 5   -249750.59615       789.838          31.600  
G19  23753088.233 5    197675.23915     -2864.726          30.700  
G24  22835468.788 6   1032504.151 6     -2810.517          39.100  
G25  21585030.848 6   -915434.186 6      2374.685          41.100  
G29  23568923.328 6   -418194.422 6      2389.050          38.400  
> 2020 06 10 20 09 36.4432852  0  8                     
G02  20902076.255 6    279407.117 6      -861.707          37.500  
G05  23473914.209 4   -244791.89114      3325.918          27.400  
G06  22107814.240 6    944405.819 6     -2701.005          39.200  
G12  20197926.428 5   -250539.404 5       791.085          30.700  
G19  23753621.772 5    200539.24315     -2860.464          30.600  
G24  22836002.626 6   1035316.437 6     -2809.714          39.200  
G25  21584579.868 7   -917806.576 7      2373.717          41.700  
G29  23568466.652 6   -420580.238 6      2387.132          38.100  
> 2020 06 10 20 09 37.4432852  0  8                     
G02  20902240.558 6    280268.195 6      -863.706          37.400  
G05  23473283.462 5   -248119.26415      3327.425          30.500  
G06  22108332.597 6    947105.666 6     -2701.940          40.300  
G12  20197778.946 5   -251330.495 5       788.019          31.900  
G19  23754173.106 4    203396.20524     -2858.433          28.700  
G24  22836540.170 6   1038126.436 6     -2813.180          39.600  
G25  21584128.696 6   -920179.525 6      2369.241          41.400  
G29  23568012.482 6   -422966.006 6      2381.682          39.900  
> 2020 06 10 20 09 38.4432852  0  8                     
G02  20902402.689 6    281131.877 6      -861.878          37.400  
G05  23472640.650 4   -251447.21514      3330.985          28.800  
G06  22108842.188 6    949807.325 6     -2699.256          38.500  
G12  20197627.195 4   -252117.927 4       788.713          29.000  
G19  23754710.277 5    206254.32215     -2855.732          30.900  
G24  22837073.144 6   1040940.080 6     -2812.627          39.700  
G25  21583676.253 7   -922547.680 7      2368.825          41.700  
G29  23567561.838 6   -425346.325 6      2380.529          38.800  
> 2020 06 10 20 09 39.4432852  0  8                     
G02  20902570.112 6    281988.388 6      -857.195          37.000  
G05  23472010.925 5   -254784.107 5      3335.222          34.100  
G06  22109357.370 6    952500.227 6     -2692.276          38.200  
G12  20197476.838 4   -252912.13114       793.210          27.900  
G19  23755254.839 5    209101.48325     -2846.108          30.200  
G24  22837607.513 6   1043749.544 6     -2812.394          39.900  
G25  21583225.504 7   -924920.563 7      2371.519          41.900  
G29  23567106.592 6   -427729.573 6      2380.448          38.200  
> 2020 06 10 20 09 40.4432852  0  8                     
G02  20902730.774 6    282851.162 6      -864.167          37.500  
G05  23471382.533 5   -258112.984 5      3327.267          35.200  
G06  22109871.788 6    955197.086 6     -2697.543          37.900  
G12  20197317.921 4   -253698.90924       785.322          27.000  
G19  23755803.133 5    211951.81515     -2850.673          30.700  
G24  22838143.815 6   1046569.042 6     -2821.823          39.400  
G25  21582774.589 6   -927286.536 6      2364.790          41.400  
G29  23566654.778 6   -430103.564 6      2372.464          36.300  
> 2020 06 10 20 09 41.4432852  0  8                     
G02  20902897.634 6    283711.902 6      -856.403          37.300  
G05  23470745.051 6   -261443.624 6      3335.216          36.500  
G06  22110383.709 6    957890.531 6     -2688.953          38.000  
G12  20197182.591 4   -254487.72714       793.013          27.700  
G19  23756341.436 5    214797.984 5     -2841.279          29.500  
G24  22838679.121 6   1049388.139 6     -2815.268          38.600  
G25  21582320.580 7   -929654.562 7      2371.725          41.600  
G29  23566200.468 6   -432478.674 6      2378.533          36.000  
> 2020 06 10 20 09 42.4432852  0  8                     
G02  20903060.017 6    284569.366 6      -861.400          37.300  
G05  23470108.187 6   -264777.718 6      3331.284          37.800  
G06  22110894.151 6    960580.171 6     -2692.987          36.500  
G12  20197026.294 4   -255278.755 4       787.292          27.900  
G19  23756882.457 5    217639.547 5     -2844.174          30.000  
G24  22839214.146 6   1052205.109 6     -2821.621          38.300  
G25  21581874.384 6   -932024.469 6      2365.182          41.100  
G29  23565748.876 6   -434854.855 6      2370.996          35.600  
> 2020 06 10 20 09 43.4432852  0  8                     
G02  20903222.265 6    285428.415 6      -851.439          35.900  
G05  23469476.884 6   -268111.932 6      3342.924          37.000  
G06  22111405.057 5    963270.011 5     -2681.256          33.700  
G12  20196878.856 4   -256066.98514       788.652          25.300  
G19  23757414.049 5    220479.909 5     -2830.397          31.600  
G24  22839755.930 6   1055025.456 6     -2813.427          37.000  
G25  21581423.256 6   -934391.021 6      2373.281          40.600  
G29  23565298.348 6   -437226.640 6      2378.306          37.200  
> 2020 06 10 20 09 44.4432852  0  8                     
G02  20903381.544 6    286279.585 6      -853.876          35.800  
G05  23468837.516 6   -271455.36316      3340.137          35.600  
G06  22111913.295 5    965950.197 5     -2682.097          33.800  
G12  20196713.160 4   -256858.19714       793.831          23.700  
G19  23757966.056 5    223309.000 5     -2830.206          32.200  
G24  22840289.650 6   1057840.731 6     -2819.024          36.500  
G25  21580973.657 6   -936763.395 6      2368.825          39.800  
G29  23564847.849 6   -439602.528 6      2371.828          37.100  
> 2020 06 10 20 09 45.4432852  0  8                     
G02  20903544.613 6    287127.04716      -847.629          35.600  
G05  23468202.238 6   -274801.277 6      3347.028          37.800  
G06  22112423.823 5    968627.65115     -2677.818          32.700  
G12  20196583.632 4   -257656.22214       800.321          23.900  
G19  23758498.769 5    226132.73615     -2823.027          32.000  
G24  22840824.162 6   1060653.15216     -2812.804          35.900  
G25  21580517.055 6   -939137.77816      2374.881          38.600  
G29  23564398.143 6   -441980.03516      2377.311          36.200  
> 2020 06 10 20 09 46.4432852  0  8                     
G02  20903706.245 6    287977.716 6      -846.754          35.800  
G05  23467564.323 6   -278146.434 6      3349.408          36.900  
G06  22112932.615 5    971305.620 5     -2673.678          33.200  
G12  20196406.199 3              23       798.900          22.200  
G19  23759031.544 5    228957.732 5     -2820.151          32.200  
G24  22841357.537 6   1063469.642 6     -2813.033          36.000  
G25  21580066.511 6   -941508.975 6      2374.516          38.500  
G29  23563944.900 6   -444353.798 6      2376.815          36.500  
> 2020 06 10 20 09 47.4432852  0  8                     
G02  20903872.540 6    288822.997 6      -852.612          35.800  
G05  23466925.376 6   -281497.548 6      3344.021          37.100  
G06  22113443.971 5    973977.872 5     -2679.811          33.100  
G12  20196265.806 3   -259256.39923       794.089          23.400  
G19  23759576.178 5    231776.517 5     -2826.144          33.000  
G24  22841896.774 6   1066281.093 6     -2818.438          36.500  
G25  21579615.533 6   -943884.785 6      2368.452          37.600  
G29  23563487.027 5   -446731.744 5      2370.745          35.100  
> 2020 06 10 20 09 48.4432852  0  8                     
G02  20904030.115 5    289677.826 5      -847.509          34.800  
G05  23466290.899 6   -284839.899 6      3349.548          35.600  
G06  22113946.907 5    976659.817 5     -2674.627          32.800  
G12  20196126.586 3              23       799.050          21.800  
G19  23760109.093 5    234604.943 5     -2820.196          32.800  
G24  22842431.787 6   1069101.842 6     -2812.673          35.700  
G25  21579163.930 6   -946250.760 6      2374.125          37.300  
G29  23563039.321 5   -449100.824 5      2377.112          35.200  
> 2020 06 10 20 09 49.4432852  0  8                     
G02  20904189.709 5    290522.926 5      -847.415          35.400  
G05  23465655.743 6   -288190.513 6      3347.624          36.700  
G06  22114458.757 5    979331.625 5     -2673.761          33.800  
G12  20195959.406 3              23       799.400          21.800  
G19  23760647.924 5    237423.043 5     -2819.937          33.500  
G24  22842968.520 6   1071913.085 6     -2813.849          36.300  
G25  21578712.246 6   -948628.007 6      2375.933          37.900  
G29  23562582.542 5   -451480.193 5      2378.088          34.800  
> 2020 06 10 20 09 50.4432852  0  8                     
G02  20904353.077 5    291367.142 5      -842.259          35.400  
G05  23465015.367 6   -291539.483 6      3348.909          37.600  
G06  22114975.880 5    982001.944 5     -2668.074          32.800  
G12  20195792.403 3              23       804.800          22.100  
G19  23761179.737 5    240240.228 5     -2815.750          33.800  
G24  22843499.733 6   1074724.005 6     -2808.994          37.200  
G25  21578260.140 6   -951008.860 6      2385.106          37.700  
G29  23562128.937 6   -453862.879 6      2386.993          35.800  
> 2020 06 10 20 09 51.4432852  0  7                     
G02  20904514.551 6    292212.087 6      -844.448          36.600  
G05  23464378.794 6   -294884.160 6      3344.326          36.800  
G06  22115475.521 5    984672.909 5     -2670.672          34.100  
G12  20195666.976 3              23       805.100          22.100  
G24  22844038.047 6   1077535.265 6     -2809.869          38.400  
G25  21577807.940 6   -953393.258 6      2386.543          38.600  
G29  23561678.835 6   -456249.462 6      2389.289          36.200  
> 2020 06 10 20 09 52.4432852  0  7                     
G02  20904676.589 5    293055.85315      -845.021          35.200  
G05  23463735.889 4   -298226.95814      3335.555          28.800  
G06  22115989.215 5    987343.28315     -2672.720          33.300  
G12  20195483.054 3              23       804.250          21.300  
G24  22844576.924 6   1080343.18016     -2809.190          36.400  
G25  21577351.206 6   -955781.911 6      2388.754          37.600  
G29  23561230.195 5   -458641.380 5      2392.625          34.000  
> 2020 06 10 20 09 53.4432852  0  6                     
G02  20904831.703 5    293900.33815      -837.486          32.300  
G05  23463111.843 4              24      3353.400          26.200  
G12  20195365.057 3              23       820.150          21.500  
G24  22845100.183 6              26     -2791.600          37.400  
G25  21576895.343 5   -958178.82315      2402.380          34.900  
G29  23560786.024 4              24      2408.500          26.100  
> 2020 06 10 20 09 54.4432853  0  7                     
G02  20905020.243 5    294729.69815      -833.537          30.600  
G05  23462501.435 4   -304909.56024      3350.820          25.600  
G06                                                                
G12  20195252.604 3              23       808.750          20.100  
G24  22845667.660 5   1085948.92825     -2798.641          32.300  
G25  21576470.207 6   -960578.64916      2397.393          36.700  
G29  23560338.104 5   -463443.41725      2408.591          34.000  
> 2020 06 10 20 09 55.4432853  0  8                     
G02                                                                
G05  23461859.171 5   -308255.91215      3340.665          32.000  
G06  22117543.621 5    995360.236 5     -2678.618          31.300  
G12  20195085.512 3              23       801.100          21.300  
G19  23763890.779 4      1255.93424     -2828.845          26.400  
G24  22846203.581 6   1088749.15216     -2802.954          37.100  
G25  21576013.215 5   -962974.41915      2389.753          33.200  
G29  23559884.110 5   -465850.74015      2397.949          29.600  
> 2020 06 10 20 09 56.4432853  0  8                     
G02  20905345.344 6    296409.844 6      -838.813          36.900  
G05  23461223.247 5   -311603.58425      3351.111          32.000  
G06  22118047.208 6    998034.449 6     -2671.464          37.700  
G12  20194907.370 4   -266465.00524       808.552          24.300  
G19  23764436.037 4      4080.63214     -2820.449          26.200  
G24  22846732.350 4   1091543.63114     -2785.204          24.700  
G25  21575560.164 4   -965369.18414      2404.108          28.900  
G29  23559424.464 6              26      2411.800          36.800  
> 2020 06 10 20 09 57.4432853  0  7                     
G02  20905507.150 6    297258.489 6      -855.707          37.100  
G05  23460588.204 5   -314945.26925      3334.156          32.600  
G06  22118556.173 6   1000715.905 6     -2688.921          37.400  
G12  20194772.681 4   -267270.24614       799.653          25.300  
G24  22847264.999 5              25     -2804.800          34.000  
G25  21575102.898 6              26      2387.250          37.900  
G29  23558965.099 5   -470650.80025      2399.280          35.100  
> 2020 06 10 20 09 58.4432853  0  7                     
G02  20905667.201 6    298113.116 6      -849.723          36.700  
G05  23459961.600 5   -318280.01915      3339.383          30.900  
G06  22119069.080 6   1003404.102 6     -2683.671          36.700  
G12  20194608.956 4              24       806.700          23.500  
G24  22847799.791 6   1097125.667 6     -2796.624          36.700  
G25  21574647.476 6   -970166.442 6      2395.195          40.000  
G29  23558529.762 4   -473053.95014      2415.105          25.000  
> 2020 06 10 20 09 59.4432853  0  6                     
G02  20905832.416 6    298965.400 6      -857.848          37.300  
G05  23459320.373 5   -321616.152 5      3331.399          32.200  
G06  22119582.654 6   1006091.231 6     -2694.057          38.000  
G12  20194459.689 4   -268871.89524       799.492          24.600  
G24  22848326.256 6   1099923.015 6     -2799.419          36.800  
G25  21574193.020 6   -972560.587 6      2390.268          41.400  
> 2020 06 10 20 10 00.4432853  0  7                     
G02  20905991.904 6    299821.497 6      -854.634          36.200  
G05  23458686.310 5   -324949.721 5      3335.697          34.300  
G06  22120092.599 6   1008785.187 6     -2693.932          37.600  
G12  20194309.191 4   -269672.82914       804.113          26.800  
G24  22848858.985 5   1102717.193 5     -2789.765          33.900  
G25  21573739.132 6   -974954.121 6      2396.972          39.700  
G29  23557591.440 6     -1075.584 6      2418.083          38.900  
> 2020 06 10 20 10 01.4432854  0  8                     
G02  20906186.365 6    300681.067 6      -859.887          36.300  
G05  23458079.426 5   -328280.974 5      3332.027          34.800  
G06  22120641.115 6   1011484.900 6     -2700.176          38.300  
G12  20194180.776 4   -270472.266 4       798.959          29.200  
G19  23767156.456 4      1269.34724     -2854.353          27.700  
G24  22849421.891 5   1105510.039 5     -2792.069          34.400  
G25  21573312.723 6   -977346.823 6      2392.242          39.700  
G29  23557162.332 6     -3490.037 6      2414.757          39.400  
> 2020 06 10 20 10 02.4432854  0  8                     
G02  20906350.828 6    301535.756 6      -857.571          35.600  
G05  23457442.844 5   -331618.74215      3334.559          34.300  
G06  22121149.741 6   1014180.277 6     -2698.386          38.800  
G12  20194036.154 4   -271276.95314       800.922          28.900  
G19  23767705.554 4      4118.41114     -2849.920          24.700  
G24  22849959.296 3              23     -2790.650          22.000  
G25  21572853.019 6   -979743.736 6      2393.369          40.300  
G29  23556702.328 4     -5907.95514      2416.159          25.700  
> 2020 06 10 20 10 03.4432854  0  8                     
G02  20906517.188 4    302403.89714      -874.437          28.100  
G05  23456812.954 5              25      3338.250          30.700  
G06  22121665.658 6   1016886.74516     -2705.141          36.800  
G12  20193856.852 3              23       796.500          22.000  
G19  23768242.157 3      6972.20913     -2854.722          22.700  
G24  22850485.406 5              25     -2793.000          34.500  
G25  21572401.805 5              25      2389.150          33.500  
G29  23556242.421 6     -8318.448 6      2410.952          38.800  
> 2020 06 10 20 10 04.4432854  0  8                     
G02  20906675.574 6              26      -862.300          36.200  
G05  23456179.589 5   -338277.963 5      3333.001          35.300  
G06  22122176.600 6              26     -2704.850          35.800  
G12  20193731.935 4   -272865.15124       796.684          29.200  
G19  23768792.972 4      9828.01814     -2857.098          26.000  
G24  22851020.632 6   1113870.397 6     -2790.095          36.700  
G25  21571945.617 6   -984508.246 6      2389.450          39.300  
G29  23555783.835 6    -10734.479 6      2414.400          40.000  
> 2020 06 10 20 10 05.4432854  0  8                     
G02  20906841.749 6    304141.469 6      -866.146          35.700  
G05  23455547.716 5   -341608.711 5      3330.704          35.300  
G06  22122693.532 6   1022301.964 6     -2709.668          38.100  
G12  20193567.438 5   -273659.09025       793.587          29.700  
G19  23769343.780 4     12685.24814     -2859.415          28.800  
G24  22851547.157 6   1116661.689 6     -2790.364          38.200  
G25  21571490.921 6   -986895.471 6      2387.148          39.200  
G29  23555324.642 6    -13147.698 6      2414.205          39.700  
> 2020 06 10 20 10 06.4432854  0  8                     
G02  20907002.735 6    305004.441 6      -857.484          35.900  
G05  23454910.655 5   -344942.864 5      3339.751          34.300  
G06  22123209.173 6   1025009.498 6     -2701.999          37.600  
G12  20193425.634 4   -274455.87514       802.436          29.100  
G19  23769887.301 4     15545.78414     -2855.454          29.400  
G24  22852076.888 6   1119447.910 6     -2779.758          38.100  
G25  21571033.436 6   -989286.254 6      2396.721          38.500  
G29  23554864.159 6    -15565.545 6      2424.860          39.100  
> 2020 06 10 20 10 07.4432854  0  8                     
G02  20907170.895 6    305863.974 6      -866.243          35.700  
G05  23454268.776 5   -348280.893 5      3331.418          33.300  
G06  22123724.493 6   1027714.054 6     -2711.763          36.200  
G12  20193271.218 4   -275256.736 4       794.292          29.000  
G19  23770431.401 4     18403.73914     -2865.228          28.600  
G24  22852605.699 6   1122228.501 6     -2786.335          38.400  
G25  21570580.127 6   -991681.611 6      2389.126          37.800  
G29  23554402.755 6    -17990.12016      2412.816          37.900  
> 2020 06 10 20 10 08.4432854  0  8                     
G02  20907333.712 5    306725.550 5      -854.534          35.400  
G05  23453637.443 5   -351617.774 5      3344.545          33.600  
G06  22124238.966 6   1030421.288 6     -2700.326          35.600  
G12  20193112.058 4   -276055.764 4       806.166          28.800  
G19  23770959.066 4     21264.45614     -2853.386          27.300  
G24  22853134.263 6   1125009.114 6     -2773.029          37.900  
G25  21570125.671 6   -994075.807 6      2401.296          37.500  
G29  23553941.104 6              26      2432.900          39.200  
> 2020 06 10 20 10 09.4432854  0  8                     
G02  20907493.812 6    307584.583 6      -865.573          35.700  
G05  23453003.092 5   -354958.150 5      3334.083          34.000  
G06  22124751.921 6   1033126.236 6     -2711.665          36.400  
G12  20192969.966 5   -276857.44015       794.925          29.900  
G19  23771516.990 4     24122.28314     -2864.523          29.300  
G24  22853665.505 6   1127786.261 6     -2783.461          37.300  
G25  21569669.397 6   -996472.431 6      2389.901          38.100  
G29  23553480.333 6    -22834.442 6      2420.257          40.300  
> 2020 06 10 20 10 10.4432854  0  8                     
G02  20907661.853 6    308452.957 6      -869.383          36.300  
G05  23452369.788 5   -358290.23815      3331.282          31.300  
G06  22125272.519 6   1035840.615 6     -2715.381          37.000  
G12  20192816.330 4   -277649.59124       790.960          29.300  
G19  23772058.572 5     26989.06315     -2867.705          30.500  
G24  22854197.494 6   1130572.164 6     -2787.015          38.600  
G25  21569215.069 6   -998859.373 6      2385.692          38.900  
G29  23553021.509 6    -25252.151 6      2416.213          40.500  
> 2020 06 10 20 10 11.4432854  0  8                     
G02  20907828.142 6    309320.16416      -862.882          35.500  
G05  23451744.925 4   -361623.19014      3336.869          28.000  
G06  22125787.466 6   1038553.30516     -2709.578          37.100  
G12  20192661.541 4   -278442.70314       796.741          27.900  
G19  23772602.899 5     29853.95415     -2859.714          31.000  
G24  22854724.134 5   1133356.63815     -2780.552          34.300  
G25  21568762.586 6  -1001247.013 6      2390.246          39.800  
G29  23552559.132 6    -27670.843 6      2421.525          40.500  
> 2020 06 10 20 10 12.4432855  0  6                     
G02  20908027.596 4    310182.50514      -866.838          27.600  
G05  23451132.541 5   -364958.42915      3333.372          32.300  
G06  22126341.275 4   1041260.29614     -2706.549          25.500  
G12  20192558.505 3              23       798.500          20.600  
G19  23773169.899 4     32711.19814     -2854.977          24.100  
G24  22855281.240 5   1136132.66615     -2779.076          33.200  
> 2020 06 10 20 10 13.4432855  0  8                     
G02  20908187.506 5              25      -852.100          35.000  
G05  23450497.402 5   -368302.311 5      3353.342          33.700  
G06  22126849.244 6   1043962.63716     -2698.506          36.100  
G12  20192391.042 4              24       808.600          29.300  
G19  23773723.437 4              24     -2845.700          28.300  
G24  22855811.094 6   1138908.636 6     -2766.741          37.100  
G25  21567883.208 5              25      2401.900          34.500  
G29  23551667.163 6     -1083.192 6      2434.012          38.700  
> 2020 06 10 20 10 14.4432855  0  8                     
G02  20908352.941 6    311943.988 6      -868.446          37.000  
G05  23449857.294 5   -371648.118 5      3338.281          34.900  
G06  22127362.738 6   1046669.506 6     -2715.032          38.100  
G12  20192239.895 5   -280834.809 5       791.025          30.400  
G19  23774270.807 5     38403.595 5     -2864.224          30.300  
G24  22856339.278 6   1141683.444 6     -2782.538          38.700  
G25  21567425.074 6  -1008419.748 6      2384.206          39.300  
G29  23551203.633 6     -3508.202 6      2416.578          40.600  
> 2020 06 10 20 10 15.4432855  0  8                     
G02  20908519.009 6    312816.335 6      -875.958          36.100  
G05  23449224.715 5   -374982.894 5      3332.077          35.200  
G06  22127881.062 6   1049388.678 6     -2722.753          38.200  
G12  20192090.882 5   -281621.716 5       783.064          30.800  
G19  23774819.410 5     41271.770 5     -2871.302          33.100  
G24  22856872.292 6   1144469.740 6     -2789.368          39.200  
G25  21566972.071 6  -1010799.522 6      2375.994          39.300  
G29  23550751.229 6     -5920.500 6      2408.884          40.600  
> 2020 06 10 20 10 16.4432855  0  8                     
G02  20908683.514 6    313692.783 6      -872.410          36.300  
G05  23448589.673 5   -378315.658 5      3337.560          34.800  
G06  22128397.223 6   1052111.868 6     -2719.450          37.200  
G12  20191941.804 5   -282404.342 5       786.657          30.100  
G19  23775363.752 5     44142.985 5     -2867.213          31.600  
G24  22857402.244 6   1147258.615 6     -2783.919          38.300  
G25  21566519.603 6  -1013175.062 6      2379.710          38.300  
G29  23550291.566 6     -8329.451 6      2413.712          39.200  
> 2020 06 10 20 10 17.4432855  0  8                     
G02  20908849.031 6    314564.301 6      -876.795          36.100  
G05  23447958.642 5   -381654.621 5      3334.011          33.500  
G06  22128919.493 6   1054830.937 6     -2724.802          37.500  
G12  20191792.538 4   -283192.141 4       782.613          28.900  
G19  23775910.305 5     47009.870 5     -2872.564          30.800  
G24  22857929.310 6   1150040.523 6     -2786.670          38.700  
G25  21566067.847 6  -1015555.856 6      2375.417          38.800  
G29  23549832.316 6    -10744.767 6      2410.143          40.600  
> 2020 06 10 20 10 18.4432855  0  8                     
G02  20909014.717 6    315442.914 6      -880.297          36.100  
G05  23447319.985 5   -384987.202 5      3331.550          34.800  
G06  22129435.038 6   1057558.294 6     -2728.439          37.500  
G12  20191645.842 5   -283972.216 5       778.825          30.500  
G19  23776458.228 5     49884.348 5     -2875.814          33.800  
G24  22858462.243 6   1152828.713 6     -2789.751          38.800  
G25  21565617.161 6  -1017929.047 6      2371.228          39.000  
G29  23549372.636 6    -13152.868 6      2406.011          40.100  
> 2020 06 10 20 10 19.4432855  0  8                     
G02  20909186.339 6    316328.279 6      -887.536          35.700  
G05  23446689.062 6   -388314.582 6      3325.832          36.300  
G06  22129955.018 6   1060291.416 6     -2734.976          37.400  
G12  20191499.983 5   -284745.613 5       771.115          32.500  
G19  23777006.988 5     52764.055 5     -2881.193          35.200  
G24  22858991.816 6   1155623.473 6     -2797.183          38.600  
G25  21565166.413 6  -1020294.790 6      2363.105          37.900  
G29  23548915.892 6    -15553.601 6      2397.948          39.400  
> 2020 06 10 20 10 20.4432855  0  8                     
G02  20909351.490 5    317212.927 5      -880.173          34.500  
G05  23446054.367 5   -391643.621 5      3334.253          35.000  
G06  22130474.823 6   1063023.385 6     -2727.174          38.000  
G12  20191347.653 5   -285519.316 5       777.908          33.100  
G19  23777554.974 5     55641.737 5     -2872.337          35.000  
G24  22859522.115 6   1158418.073 6     -2790.360          37.900  
G25  21564714.591 6  -1022660.080 6      2369.245          37.500  
G29  23548458.074 6    -17953.467 6      2403.705          39.100  
> 2020 06 10 20 10 21.4432855  0  8                     
G02  20909518.773 5    318087.978 5      -872.290          34.700  
G05  23445413.410 5   -394983.574 5      3343.412          34.700  
G06  22130996.162 6   1065745.101 6     -2718.515          38.900  
G12  20191196.857 5   -286301.941 5       784.992          33.100  
G19  23778094.000 5     58508.076 5     -2862.285          34.000  
G24  22860062.040 6   1161203.915 6     -2783.693          37.200  
G25  21564264.902 6  -1025033.599 6      2375.438          38.000  
G29  23547999.391 6    -20361.006 6      2409.058          39.100  
> 2020 06 10 20 10 22.4432855  0  8                     
G02  20909684.586 5    318964.013 5      -878.752          34.300  
G05  23444782.674 5   -398324.037 5      3338.261          34.400  
G06  22131510.633 6   1068466.660 6     -2723.791          38.100  
G12  20191050.286 5   -287082.719 5       777.581          31.600  
G19  23778642.647 5     61372.737 5     -2866.084          33.200  
G24  22860584.905 5   1163992.192 5     -2792.096          34.900  
G25  21563814.641 6  -1027404.141 6      2366.616          38.500  
G29  23547543.434 6    -22764.634 6      2398.922          38.600  
> 2020 06 10 20 10 23.4432855  0  8                     
G02  20909858.130 6    319845.372 6      -881.728          35.600  
G05  23444147.078 5   -401660.292 5      3336.492          31.500  
G06  22132034.035 6   1071192.342 6     -2725.377          38.300  
G12  20190906.650 5   -287857.032 5       773.298          31.800  
G19  23779190.033 5     64240.270 5     -2866.363          32.600  
G24  22861117.901 5   1166788.284 5     -2797.689          35.300  
G25  21563365.516 6  -1029766.772 6      2360.979          40.000  
G29  23547087.714 6    -25158.779 6      2391.758          38.200  
> 2020 06 10 20 10 24.4432855  0  8                     
G02  20910021.122 5    320722.097 5      -871.911          34.400  
G05  23443508.125 4   -405002.51614      3348.275          28.900  
G06  22132548.084 6   1073911.939 6     -2713.835          38.300  
G12  20190757.557 5   -288634.988 5       782.258          31.300  
G19  23779731.063 5     67100.065 5     -2852.764          31.100  
G24  22861649.637 6   1169581.851 6     -2789.601          36.200  
G25  21562913.334 6  -1032131.802 6      2368.814          40.800  
G29  23546629.236 6    -27554.049 6      2398.581          38.300  
> 2020 06 10 20 10 25.4432855  0  8                     
G02  20910186.672 6    321596.322 6      -875.843          35.900  
G05  23442882.823 4   -408348.456 4      3344.740          28.600  
G06  22133066.790 6   1076626.925 6     -2715.347          38.700  
G12  20190606.527 5   -289414.244 5       776.976          29.700  
G19  23780273.453 4     69952.88014     -2851.547          29.400  
G24  22862181.534 6   1172376.300 6     -2798.327          37.200  
G25  21562465.809 7  -1034496.588 7      2361.553          41.600  
G29  23546174.516 6    -29946.933 6      2388.305          38.600  
> 2020 06 10 20 10 26.4432855  0  8                     
G02  20910349.864 6    322468.239 6      -867.383          36.600  
G05  23442234.177 4   -411697.408 4      3353.990          29.100  
G06  22133578.041 6   1079337.030 6     -2704.459          38.100  
G12  20190461.532 4   -290194.69514       784.385          26.700  
G19  23780815.282 5     72799.316 5     -2839.907          31.900  
G24  22862712.871 6   1175172.930 6     -2793.670          37.500  
G25  21562012.927 6  -1036860.407 6      2367.266          41.400  
G29  23545722.533 6    -32336.132 6      2391.735          40.200  
> 2020 06 10 20 10 27.4432855  0  8                     
G02  20910514.559 6    323335.604 6      -871.545          37.000  
G05  23441598.426 5   -415051.959 5      3350.706          31.100  
G06  22134096.191 6   1082040.606 6     -2707.373          38.200  
G12  20190323.737 4   -290978.76014       779.168          25.800  
G19  23781352.619 5     75637.639 5     -2841.772          31.800  
G24  22863244.812 6   1177967.460 6     -2799.076          38.100  
G25  21561561.848 6  -1039227.143 6      2362.311          40.900  
G29  23545267.557 6    -34726.816 6      2385.979          40.500  
> 2020 06 10 20 10 28.4432855  0  8                     
G02  20910685.309 5    324211.030 5      -872.374          35.300  
G05  23440957.938 4   -418399.121 4      3351.025          27.400  
G06  22134608.705 6   1084751.723 6     -2708.093          36.500  
G12  20190169.812 3   -291753.17513       771.984          23.000  
G19  23781891.814 5     78482.700 5     -2841.277          29.600  
G24  22863774.114 6   1180770.151 6     -2798.965          37.200  
G25  21561115.326 6  -1041585.696 6      2361.820          40.000  
G29  23544812.341 6    -37109.227 6      2386.583          39.100  
> 2020 06 10 20 10 29.4432856  0  8                     
G02  20910877.454 6    325074.747 6      -863.685          36.100  
G05  23440344.540 4   -421759.51414      3359.926          26.600  
G06  22135156.403 6   1087451.237 6     -2699.775          36.400  
G12  20190037.880 3              23       787.950          21.000  
